produced with https://github.com/illarionov/sirfdump -o nmea

$GPGGA,142136.757,,,,,,,0,,,,,,,,*7E
$GPRMC,142136.757,V,,,,,,,,,2406*29
$GPGLL,0000.0000,N,00000.0000,E,14213*72
$GPGSA,A,1,,,,,,,,,,,,,,,*1E
$GPGSV,1,1,,,,,,,,,,,,,*79
$GPGGA,142137.757,,,,,,,0,,,,,,,,*7F
$GPRMC,142137.757,V,,,,,,,,,2406*28
$GPGLL,4343.4975,N,01547.9759,E,14213*78
$GPGSA,A,1,,,,,,,,,,,,,,,*1E
$GPGSV,1,1,01,29,78,289,36*4A
$GPGGA,142138.757,,,,,,,0,,,,,,,,*70
$GPRMC,142138.757,V,,,,,,,,,2406*27
$GPGLL,4343.4975,N,01547.9759,E,14213*78
$GPGSA,A,1,,,,,,,,,,,,,,,*1E
$GPGSV,1,1,01,29,78,289,36*4A
$GPGGA,142139.757,,,,,,,0,,,,,,,,*71
$GPRMC,142139.757,V,,,,,,,,,2406*26
$GPGLL,4343.4975,N,01547.9759,E,14213*78
$GPGSA,A,1,,,,,,,,,,,,,,,*1E
$GPGSV,1,1,02,29,78,289,37,21,21,190,24*76
$GPGGA,142140.758,,,,,,,0,,,,,,,,*70
$GPRMC,142140.758,V,,,,,,,,,2406*27
$GPGLL,4343.4975,N,01547.9759,E,14214*7F
$GPGSA,A,1,,,,,,,,,,,,,,,*1E
$GPGSV,1,1,03,29,78,289,37,21,21,190,24,02,24,046,19*49
$GPGGA,142141.758,,,,,,,0,,,,,,,,*71
$GPRMC,142141.758,V,,,,,,,,,2406*26
$GPGLL,4343.4975,N,01547.9759,E,14214*7F
$GPGSA,A,1,,,,,,,,,,,,,,,*1E
$GPGSV,1,1,03,29,78,289,37,21,21,190,24,02,24,046,19*49
$GPGGA,142142.758,,,,,,,0,,,,,,,,*72
$GPRMC,142142.758,V,,,,,,,,,2406*25
$GPGLL,4343.4975,N,01547.9759,E,14214*7F
$GPGSA,A,1,,,,,,,,,,,,,,,*1E
$GPGSV,1,1,03,29,78,289,37,21,21,190,24,02,24,046,19*49
$GPGGA,142143.758,,,,,,,0,,,,,,,,*73
$GPRMC,142143.758,V,,,,,,,,,2406*24
$GPGLL,4343.4975,N,01547.9759,E,14214*7F
$GPGSA,A,1,,,,,,,,,,,,,,,*1E
$GPGSV,1,1,03,29,78,289,36,21,21,190,24,02,24,046,19*48
$GPGGA,142143.958,4343.493798,N,01547.974992,E,1,03,4.6,14.2,M,41.3,M,,*6E
$GPRMC,142143.958,A,4343.493798,N,01547.974992,E,1.6,5.5,240614,,,A*6E
$GPGLL,4343.4937,N,01547.9749,E,142143.958,A,A*51
$GPGSA,A,2,02,25,29,,,,,,,,,,0.0,4.6,0.0*3F
$GPGSV,1,1,04,29,78,289,36,21,21,190,24,02,24,046,19,25,69,087,16*7F
$GPGGA,142144.058,4343.493193,N,01547.974697,E,1,03,4.6,13.5,M,41.3,M,,*67
$GPRMC,142144.058,A,4343.493193,N,01547.974697,E,1.8,13.7,240614,,,A*5C
$GPGLL,4343.4931,N,01547.9746,E,142144.058,A,A*56
$GPGSA,A,2,02,25,29,,,,,,,,,,0.0,4.6,0.0*3F
$GPGSV,1,1,04,29,78,289,36,21,21,190,24,02,24,046,19,25,69,087,16*7F
$GPGGA,142145.058,4343.492636,N,01547.974342,E,1,04,3.8,14.0,M,41.3,M,,*6E
$GPRMC,142145.058,A,4343.492636,N,01547.974342,E,1.5,23.2,240614,,,A*52
$GPGLL,4343.4926,N,01547.9743,E,142145.058,A,A*54
$GPGSA,A,3,02,14,25,29,,,,,,,,,0.0,3.8,0.0*32
$GPGSV,2,1,05,29,78,289,36,21,21,190,24,02,24,046,19,25,69,087,16*7D
$GPGGA,142146.058,4343.492937,N,01547.972988,E,1,04,3.6,14.3,M,41.3,M,,*64
$GPRMC,142146.058,A,4343.492937,N,01547.972988,E,0.5,23.2,240614,,,A*54
$GPGLL,4343.4929,N,01547.9729,E,142146.058,A,A*54
$GPGSA,A,3,02,14,25,29,,,,,,,,,0.0,3.6,0.0*3C
$GPGSV,2,1,05,29,78,289,36,21,21,190,24,02,24,046,19,25,69,087,16*7D
$GPGGA,142147.058,4343.492636,N,01547.971939,E,1,04,3.6,13.6,M,41.3,M,,*60
$GPRMC,142147.058,A,4343.492636,N,01547.971939,E,0.6,23.2,240614,,,A*51
$GPGLL,4343.4926,N,01547.9719,E,142147.058,A,A*59
$GPGSA,A,3,02,14,25,29,,,,,,,,,0.0,3.6,0.0*3C
$GPGSV,2,1,05,29,78,289,36,21,21,190,24,02,24,046,19,25,69,087,16*7D
$GPGGA,142148.058,4343.493033,N,01547.971363,E,1,04,3.6,13.2,M,41.3,M,,*6C
$GPRMC,142148.058,A,4343.493033,N,01547.971363,E,0.4,23.2,240614,,,A*5B
$GPGLL,4343.4930,N,01547.9713,E,142148.058,A,A*5B
$GPGSA,A,3,02,14,25,29,,,,,,,,,0.0,3.6,0.0*3C
$GPGSV,2,1,05,29,78,289,36,21,21,190,24,02,24,046,19,25,69,087,16*7D
$GPGGA,142149.062,4343.494425,N,01547.969302,E,1,05,1.6,13.1,M,41.3,M,,*6E
$GPRMC,142149.062,A,4343.494425,N,01547.969302,E,0.9,23.2,240614,,,A*54
$GPGLL,4343.4944,N,01547.9693,E,142149.062,A,A*59
$GPGSA,A,3,02,12,14,25,29,,,,,,,,0.0,1.6,0.0*3D
$GPGSV,2,1,05,29,78,289,36,21,21,190,24,02,24,046,19,25,69,087,16*7D
$GPGGA,142150.063,4343.494995,N,01547.968560,E,1,05,1.6,13.6,M,41.3,M,,*65
$GPRMC,142150.063,A,4343.494995,N,01547.968560,E,0.3,23.2,240614,,,A*52
$GPGLL,4343.4949,N,01547.9685,E,142150.063,A,A*5A
$GPGSA,A,3,02,12,14,25,29,,,,,,,,0.0,1.6,0.0*3D
$GPGSV,2,1,06,29,78,289,36,21,21,190,24,02,24,046,19,25,69,087,16*7E
$GPGGA,142151.062,4343.496268,N,01547.967728,E,1,05,1.6,14.1,M,41.3,M,,*6F
$GPRMC,142151.062,A,4343.496268,N,01547.967728,E,0.6,23.2,240614,,,A*5D
$GPGLL,4343.4962,N,01547.9677,E,142151.062,A,A*5E
$GPGSA,A,3,02,12,14,25,29,,,,,,,,0.0,1.6,0.0*3D
$GPGSV,2,1,06,29,78,289,36,21,21,190,24,02,24,046,19,25,69,087,16*7E
$GPGGA,142152.058,4343.497494,N,01547.967299,E,1,05,1.6,15.0,M,41.3,M,,*6E
$GPRMC,142152.058,A,4343.497494,N,01547.967299,E,0.9,23.2,240614,,,A*53
$GPGLL,4343.4974,N,01547.9673,E,142152.058,A,A*57
$GPGSA,A,3,02,12,14,25,29,,,,,,,,0.0,1.6,0.0*3D
$GPGSV,2,1,06,29,78,289,36,21,21,190,24,02,24,046,19,25,69,087,16*7E
$GPGGA,142153.058,4343.498924,N,01547.966841,E,1,05,1.6,14.5,M,41.3,M,,*6C
$GPRMC,142153.058,A,4343.498924,N,01547.966841,E,1.2,14.6,240614,,,A*5F
$GPGLL,4343.4989,N,01547.9668,E,142153.058,A,A*5E
$GPGSA,A,3,02,12,14,25,29,,,,,,,,0.0,1.6,0.0*3D
$GPGSV,2,1,07,29,78,289,36,21,21,190,24,02,24,046,19,25,69,087,16*7F
$GPGGA,142154.058,4343.499331,N,01547.966518,E,1,06,1.4,14.7,M,41.3,M,,*66
$GPRMC,142154.058,A,4343.499331,N,01547.966518,E,1.3,3.6,240614,,,A*61
$GPGLL,4343.4993,N,01547.9665,E,142154.058,A,A*5F
$GPGSA,A,3,02,12,14,25,29,31,,,,,,,0.0,1.4,0.*0D
$GPGSV,2,1,07,29,78,289,36,21,21,190,24,02,24,046,19,25,69,087,16*7F
$GPGGA,142155.062,4343.499766,N,01547.966076,E,1,06,1.4,14.9,M,41.3,M,,*6B
$GPRMC,142155.062,A,4343.499766,N,01547.966076,E,1.4,352.6,240614,,,A*62
$GPGLL,4343.4997,N,01547.9660,E,142155.062,A,A*56
$GPGSA,A,3,02,12,14,25,29,31,,,,,,,0.0,1.4,0.*0D
$GPGSV,2,1,07,29,78,289,36,21,21,190,24,02,24,046,19,25,69,087,16*7F
$GPGGA,142156.000,4343.500358,N,01547.965392,E,1,06,1.4,14.7,M,41.3,M,,*60
$GPRMC,142156.000,A,4343.500358,N,01547.965392,E,1.5,343.9,240614,,,A*69
$GPGLL,4343.5003,N,01547.9653,E,142156.000,A,A*54
$GPGSA,A,3,02,12,14,25,29,31,,,,,,,0.0,1.4,0.*0D
$GPGSV,2,1,07,29,78,289,35,21,21,190,24,02,24,046,19,25,69,087,20*79
